,City,Lat,Lng,Max Temp,Humidity,Cloudiness,Wind Speed,Country,Date
0,fortuna,40.5982,-124.1573,282.04,100,90,1.25,US,1618733958
1,hasaki,35.7333,140.8333,291.15,27,20,2.57,JP,1618733741
2,ushuaia,-54.8,-68.3,284.15,54,75,4.12,AR,1618733959
3,albany,42.6001,-73.9662,279.82,68,97,0.89,US,1618733853
4,adiake,5.2863,-3.304,300.15,83,20,1.03,CI,1618733892
5,arlit,18.7369,7.3853,307.53,4,100,4.78,NE,1618733959
6,kiama,-34.6833,150.8667,290.37,77,14,2.06,AU,1618733960
7,rikitea,-23.1203,-134.9692,298.25,71,5,2.53,PF,1618733960
8,hermanus,-34.4187,19.2345,303.71,29,0,2.3,ZA,1618733497
9,baykit,61.67,96.37,272.29,67,100,4.7,RU,1618733515
10,hilo,19.7297,-155.09,296.15,68,40,3.6,US,1618733465
11,arraial do cabo,-22.9661,-42.0278,297.13,82,100,9.39,BR,1618733515
12,bubaque,11.2833,-15.8333,297.71,71,100,2.56,GW,1618733516
13,shelburne,44.0787,-80.2041,275.15,86,1,3.48,CA,1618733516
14,luganville,-15.5333,167.1667,300.27,78,32,2.16,VU,1618733516
15,bredasdorp,-34.5322,20.0403,292.15,59,0,1.54,ZA,1618733517
16,puerto ayora,-0.7393,-90.3518,297.04,100,100,0.94,EC,1618733518
17,yulara,-25.2406,130.9889,297.15,22,0,5.14,AU,1618733743
18,manmad,20.25,74.45,309.53,14,0,3.37,IN,1618733519
19,fort nelson,58.8053,-122.7002,271.15,100,40,1.54,CA,1618733745
20,mataura,-46.1927,168.8643,284.26,76,90,1.79,NZ,1618733520
21,bilibino,68.0546,166.4372,263.21,89,7,1.66,RU,1618733520
22,barrow,71.2906,-156.7887,268.15,80,1,4.12,US,1618733520
23,busselton,-33.65,115.3333,297.59,45,0,1.79,AU,1618733521
24,vaini,-21.2,-175.2,296.15,83,40,2.06,TO,1618733521
25,hithadhoo,-0.6,73.0833,301.48,60,48,2.67,MV,1618733347
26,faanui,-16.4833,-151.75,300.96,73,0,3.92,PF,1618733522
27,adrar,20.5022,-10.0711,295.62,25,0,3.27,MR,1618733522
28,georgetown,5.4112,100.3354,305.15,70,40,3.6,MY,1618733523
29,castro,-24.7911,-50.0119,286.51,98,58,1.25,BR,1618733523
30,kodiak,57.79,-152.4072,278.15,81,90,4.12,US,1618733523
31,thompson,55.7435,-97.8558,269.15,74,90,5.66,CA,1618733524
32,cape town,-33.9258,18.4232,304.82,14,0,2.57,ZA,1618733534
33,prince rupert,54.3161,-130.3201,283.15,81,1,1.03,CA,1618733524
34,high rock,26.6208,-78.2833,297.15,83,0,2.06,BS,1618733525
35,richards bay,-28.783,32.0377,296.24,48,36,5.8,ZA,1618733525
36,saint-philippe,-21.3585,55.7679,301.15,65,90,6.17,RE,1618733526
37,lompoc,34.6391,-120.4579,283.15,87,2,2.82,US,1618733526
38,bengkulu,-3.8004,102.2655,301.6,70,100,2.92,ID,1618733527
39,beyneu,45.3167,55.2,294.95,22,100,3.49,KZ,1618733527
40,hobart,-42.8794,147.3294,289.15,55,75,4.63,AU,1618733528
41,chimbote,-9.0853,-78.5783,291.94,92,72,2.05,PE,1618733528
42,provideniya,64.3833,-173.3,267.71,97,15,1.32,RU,1618733529
43,aksarka,66.5606,67.7975,262.4,76,98,3.91,RU,1618733529
44,bako,5.7833,36.5667,294.52,65,100,0.52,ET,1618733233
45,altay,47.8667,88.1167,286.32,37,1,5.41,CN,1618733529
46,mareeba,-17.0,145.4333,297.59,94,40,5.14,AU,1618733530
47,deep river,46.1001,-77.4995,278.15,87,40,2.51,CA,1618733531
48,asheville,35.6009,-82.554,281.15,71,1,3.09,US,1618733269
49,itajuba,-22.4256,-45.4528,289.82,91,100,0.21,BR,1618733531
50,khatanga,71.9667,102.5,259.19,86,100,5.2,RU,1618733269
51,douentza,14.9951,-2.9517,304.33,16,14,3.62,ML,1618733532
52,severo-kurilsk,50.6789,156.125,274.5,74,100,6.07,RU,1618733532
53,moose factory,51.2585,-80.6094,269.15,100,90,0.95,CA,1618733532
54,makakilo city,21.3469,-158.0858,296.15,73,1,2.57,US,1618733752
55,lebu,-37.6167,-73.65,284.4,90,44,3.79,CL,1618733533
56,kavaratti,10.5669,72.642,302.32,67,10,2.14,IN,1618733533
57,saskylakh,71.9167,114.0833,261.38,90,100,5.85,RU,1618733534
58,bathsheba,13.2167,-59.5167,299.15,65,40,7.72,BB,1618733751
59,bethel,41.3712,-73.414,279.26,75,40,1.54,US,1618733534
60,yilan,24.757,121.753,294.82,99,74,3.91,TW,1618733535
61,gat,31.61,34.7642,307.04,31,0,0.45,IL,1618733535
62,notodden,59.5594,9.2585,282.04,55,36,0.45,NO,1618733536
63,saint-augustin,51.226,-58.6502,272.3,87,67,7.79,CA,1618733536
64,tuktoyaktuk,69.4541,-133.0374,265.3,95,31,3.08,CA,1618733536
65,palmer,42.1584,-72.3287,276.48,100,90,1.54,US,1618733537
66,leningradskiy,69.3833,178.4167,272.44,84,100,3.73,RU,1618733537
67,kautokeino,69.0125,23.0412,270.64,95,100,2.57,NO,1618733538
68,zilair,52.2332,57.4392,289.74,43,0,2.73,RU,1618733539
69,tessalit,20.1986,1.0114,303.32,15,66,6.35,ML,1618733539
70,stornoway,58.2093,-6.3865,281.15,93,90,9.77,GB,1618733540
71,nara,34.6851,135.8049,285.37,62,75,4.12,JP,1618733540
72,salas,43.4118,-6.2602,283.71,66,0,1.03,ES,1618733540
73,saint anthony,45.0205,-93.218,279.26,60,1,1.85,US,1618733541
74,new norfolk,-42.7826,147.0587,288.15,77,100,1.79,AU,1618733541
75,natal,-5.795,-35.2094,297.15,94,40,1.54,BR,1618733395
76,meulaboh,4.1363,96.1285,302.91,67,79,3.51,ID,1618733756
77,east london,-33.0153,27.9116,299.15,34,0,1.03,ZA,1618733542
78,naze,28.3667,129.4833,293.15,49,40,9.26,JP,1618733401
79,caronport,50.4501,-105.8179,278.15,60,100,7.2,CA,1618733543
80,kapaa,22.0752,-159.319,295.15,64,90,3.6,US,1618733543
81,pathein,16.7833,94.7333,307.0,43,89,4.92,MM,1618733544
82,paita,-5.0892,-81.1144,294.02,78,84,3.09,PE,1618733544
83,nanortalik,60.1432,-45.2371,268.02,56,0,8.09,GL,1618733544
84,jamestown,42.097,-79.2353,277.15,87,90,2.06,US,1618733545
85,kungurtug,50.5994,97.5228,280.93,41,55,1.82,RU,1618733545
86,qaanaaq,77.484,-69.3632,255.24,94,100,3.1,GL,1618733546
87,wanning,18.8003,110.3967,299.8,76,63,3.27,CN,1618733546
88,divnomorskoye,44.5011,38.1353,286.03,87,100,2.56,RU,1618733546
89,karlshamn,56.1706,14.8619,285.15,54,0,5.66,SE,1618733547
90,trapani,37.8333,12.6667,286.15,82,40,3.6,IT,1618733540
91,atuona,-9.8,-139.0333,300.1,74,57,8.36,PF,1618733547
92,punta arenas,-53.15,-70.9167,281.15,76,75,2.57,CL,1618733548
93,ponta do sol,32.6667,-17.1,288.71,73,80,0.45,PT,1618733548
94,te anau,-45.4167,167.7167,284.23,87,100,2.94,NZ,1618733548
95,zhigansk,66.7697,123.3711,265.65,83,99,2.45,RU,1618733549
96,saint-pierre,-21.3393,55.4781,299.15,65,90,6.17,RE,1618733549
97,general roca,-39.0333,-67.5833,288.15,77,0,3.09,AR,1618733550
98,ugoofaaru,5.6667,73.0,301.98,72,23,3.59,MV,1618733550
99,ribeira grande,38.5167,-28.7,289.15,82,20,7.2,PT,1618733550
100,pevek,69.7008,170.3133,266.69,77,11,8.01,RU,1618733535
101,avarua,-21.2078,-159.775,298.15,83,85,2.06,CK,1618733551
102,bluff,-46.6,168.3333,284.26,76,94,1.79,NZ,1618733551
103,bonavista,48.6499,-53.1147,274.82,93,100,2.57,CA,1618733552
104,puro,12.4841,123.3827,298.45,84,100,8.9,PH,1618733552
105,ancud,-41.8697,-73.8203,283.15,100,90,2.06,CL,1618733553
106,ukiah,39.1502,-123.2078,284.82,54,1,1.62,US,1618733553
107,sehithwa,-20.4667,22.7167,295.07,41,0,5.73,BW,1618733553
108,semporna,4.4818,118.6112,304.15,74,20,5.14,MY,1618733554
109,saldanha,-33.0117,17.9442,301.15,18,3,1.54,ZA,1618733555
110,norman wells,65.282,-126.8329,271.15,80,20,0.88,CA,1618733555
111,launceston,-41.45,147.1667,287.59,67,74,6.17,AU,1618733454
112,saint-gilles,43.6766,4.4302,286.15,47,0,5.14,FR,1618733556
113,kashan,33.9831,51.4364,299.95,15,80,2.93,IR,1618733556
114,kingman,35.1894,-114.053,283.15,29,1,5.14,US,1618733557
115,yellowknife,62.456,-114.3525,270.15,86,75,1.54,CA,1618733322
116,alofi,-19.0595,-169.9187,295.15,94,3,0.51,NU,1618733558
117,shimoda,34.6667,138.95,288.15,51,20,9.26,JP,1618733765
118,khuzhir,53.1939,107.3397,273.98,53,11,1.33,RU,1618733558
119,nouadhibou,20.931,-17.0347,290.15,82,0,7.2,MR,1618733472
120,pacific grove,36.6177,-121.9166,283.15,93,90,1.54,US,1618733766
121,muros,42.7762,-9.0603,284.26,79,100,2.22,ES,1618733559
122,namwala,-15.7504,26.4384,294.59,56,87,4.91,ZM,1618733559
123,shingu,33.7333,135.9833,288.15,51,40,11.32,JP,1618733559
124,ballina,-28.8667,153.5667,293.15,73,90,6.69,AU,1618733560
125,chuy,-33.6971,-53.4616,290.12,89,40,1.96,UY,1618733560
126,oussouye,12.485,-16.5469,295.15,94,0,1.03,SN,1618733561
127,havelock,34.8791,-76.9013,287.04,93,40,1.59,US,1618733561
128,esperance,-33.8667,121.9,298.15,31,0,3.6,AU,1618733562
129,husavik,66.0449,-17.3389,277.15,52,75,6.69,IS,1618733562
130,bambous virieux,-20.3428,57.7575,302.59,83,75,6.17,MU,1618733563
131,dikson,73.5069,80.5464,258.37,88,100,3.67,RU,1618733563
132,kartaly,53.0522,60.6467,286.67,41,0,5.21,RU,1618733564
133,zaton,53.2936,83.8072,281.15,29,40,5.0,RU,1618733564
134,khani,41.9563,42.9566,299.15,36,40,9.26,GE,1618733564
135,sitka,57.0531,-135.33,279.15,81,40,2.57,US,1618733565
136,marsh harbour,26.5412,-77.0636,297.48,81,0,5.47,BS,1618733565
137,petrivka,46.9695,30.9591,285.15,47,0,4.0,UA,1618733566
138,obo,5.3998,26.4869,304.46,43,98,1.71,CF,1618733566
139,torbay,47.6666,-52.7314,275.93,100,90,6.17,CA,1618733567
140,nome,64.5011,-165.4064,271.15,74,1,2.57,US,1618733770
141,helena,46.5927,-112.0361,279.26,39,1,1.54,US,1618733567
142,cidreira,-30.1811,-50.2056,293.98,86,17,2.76,BR,1618733568
143,saint george,37.1041,-113.5841,287.15,21,1,4.12,US,1618733568
144,somerset,40.5668,-74.5496,281.48,87,90,2.36,US,1618733418
145,tatarskaya kargala,51.9495,55.1731,293.15,32,0,3.0,RU,1618733570
146,port elizabeth,-33.918,25.5701,299.15,36,0,1.54,ZA,1618733528
147,vilyuysk,63.7553,121.6247,267.1,88,100,3.93,RU,1618733571
148,mahebourg,-20.4081,57.7,299.15,89,75,5.66,MU,1618733571
149,beinamar,8.6698,15.3813,306.94,33,100,2.93,TD,1618733571
150,new ulm,44.3125,-94.4605,277.59,64,90,3.09,US,1618733572
151,daru,-9.0763,143.2092,299.96,85,100,2.2,PG,1618733572
152,port blair,11.6667,92.75,303.88,62,18,3.55,IN,1618733572
153,bogale,16.2833,95.4,306.88,42,91,1.71,MM,1618733573
154,chernyy yar,48.0624,46.1091,289.45,43,17,0.13,RU,1618733573
155,lewiston,44.1003,-70.2148,277.04,93,90,1.54,US,1618733551
156,denpasar,-8.65,115.2167,303.15,79,20,6.17,ID,1618733541
157,fort oglethorpe,34.949,-85.2569,283.15,76,1,1.44,US,1618733574
158,butaritari,3.0707,172.7902,301.26,75,100,4.99,KI,1618733574
159,pisco,-13.7,-76.2167,291.15,88,34,1.54,PE,1618733344
160,lamu,-2.2717,40.902,303.15,70,75,6.69,KE,1618733575
161,portland,45.5234,-122.6762,288.71,50,1,0.8,US,1618733570
162,san quintin,30.4833,-115.95,286.48,90,14,3.12,MX,1618733575
163,odweyne,9.4092,45.064,300.6,46,53,4.0,SO,1618733576
164,yining,29.0361,114.5636,286.65,89,100,0.91,CN,1618733576
165,nikolskoye,59.7035,30.7861,285.93,35,0,4.0,RU,1618733576
166,akyab,20.15,92.9,303.26,58,0,7.63,MM,1618733577
167,fukue,32.6881,128.8419,288.15,51,20,6.69,JP,1618733577
168,talnakh,69.4865,88.3972,254.74,81,27,2.25,RU,1618733578
169,barwadih,23.8333,84.1167,313.17,10,36,6.34,IN,1618733578
170,tyrma,50.0833,132.1667,283.44,57,91,2.15,RU,1618733578
171,sile,41.1754,29.6133,285.93,93,75,5.14,TR,1618733579
172,port alfred,-33.5906,26.891,300.58,22,83,2.84,ZA,1618733579
173,zavyalovo,54.5053,82.4484,281.15,42,0,8.0,RU,1618733579
174,peniche,39.3558,-9.3811,286.48,95,100,0.45,PT,1618733580
175,chokurdakh,70.6333,147.9167,265.41,95,89,3.24,RU,1618733580
176,santa isabel do rio negro,-0.4139,-65.0192,295.96,99,100,0.7,BR,1618733580
177,hambantota,6.1241,81.1185,305.15,70,40,4.63,LK,1618733581
178,hamilton,39.1834,-84.5333,279.26,87,1,2.06,US,1618733437
179,kassala,15.451,36.4,310.06,18,6,5.27,SD,1618733582
180,manggar,-2.8833,108.2667,302.69,61,100,2.86,ID,1618733582
181,codrington,-38.2667,141.9667,287.69,72,12,5.04,AU,1618733582
182,kutum,14.2,24.6667,302.81,6,20,7.36,SD,1618733584
183,upernavik,72.7868,-56.1549,258.37,94,100,2.75,GL,1618733584
184,asau,46.4333,26.4,281.48,44,100,2.73,RO,1618733585
185,hobyo,5.3505,48.5268,304.09,55,21,5.47,SO,1618733585
186,ziway,7.9333,38.7167,297.93,42,55,2.17,ET,1618733471
187,hoa binh,20.8133,105.3383,297.15,83,75,2.57,VN,1618733586
188,lundazi,-12.2929,33.1782,290.92,79,100,4.16,ZM,1618733586
189,tasiilaq,65.6145,-37.6368,268.15,86,75,1.63,GL,1618733586
190,tukrah,32.5341,20.5791,294.08,67,98,6.09,LY,1618733587
191,gwembe,-16.4975,27.6069,292.5,55,99,4.46,ZM,1618733587
192,kavieng,-2.5744,150.7967,301.22,74,54,3.28,PG,1618733588
193,mattru,7.6244,-11.8332,298.75,84,98,0.3,SL,1618733588
194,carnarvon,-24.8667,113.6333,300.7,49,0,6.08,AU,1618733588
195,north myrtle beach,33.816,-78.68,290.37,82,40,1.96,US,1618733589
196,karla,59.3723,24.9275,284.15,43,0,4.63,EE,1618733589
197,hohhot,40.8106,111.6522,291.15,16,0,6.0,CN,1618733590
198,auki,-8.7676,160.7034,299.69,83,100,1.5,SB,1618733590
199,doha,25.2867,51.5333,308.15,15,0,4.12,QA,1618733782
200,chapleau,47.8405,-83.4034,272.4,92,45,1.14,CA,1618733591
201,pansemal,21.65,74.7,312.34,13,4,3.08,IN,1618733591
202,oranjemund,-28.55,16.4333,302.78,31,0,2.55,NA,1618733591
203,mumford,5.2618,-0.759,300.99,73,100,3.4,GH,1618733592
204,kahului,20.8947,-156.47,294.15,94,20,3.09,US,1618733533
205,korla,41.7597,86.1469,296.72,12,100,5.28,CN,1618733593
206,airai,-8.9266,125.4092,292.3,72,97,2.12,TL,1618733593
207,mar del plata,-38.0023,-57.5575,291.48,100,90,3.09,AR,1618733593
208,viedma,-40.8135,-62.9967,288.9,97,100,2.82,AR,1618733594
209,pochutla,15.7432,-96.4661,294.82,85,1,0.45,MX,1618733594
210,sao filipe,14.8961,-24.4956,295.03,74,0,4.05,CV,1618733595
211,aklavik,68.2191,-135.0107,277.15,60,75,1.54,CA,1618733595
212,soyo,-6.1349,12.3689,301.15,83,20,1.11,AO,1618733595
213,piedra gorda,18.4341,-66.8877,295.37,100,5,1.11,PR,1618733596
214,tuatapere,-46.1333,167.6833,284.26,76,100,1.79,NZ,1618733596
215,naestved,55.2299,11.7609,284.26,50,27,1.54,DK,1618733596
216,aasiaat,68.7098,-52.8699,255.17,92,100,4.3,GL,1618733597
217,axim,4.8699,-2.2405,301.56,74,100,2.55,GH,1618733597
218,arman,59.7,150.1667,272.96,98,100,0.69,RU,1618733598
219,dunedin,-45.8742,170.5036,284.82,79,100,2.38,NZ,1618733598
220,sola,-13.8833,167.55,301.29,75,97,5.09,VU,1618733598
221,alta floresta,-9.8756,-56.0861,293.84,99,100,1.25,BR,1618733599
222,cap malheureux,-19.9842,57.6142,302.59,72,92,4.02,MU,1618733599
223,koungou,-12.7336,45.2042,303.15,74,90,1.54,YT,1618733533
224,bar harbor,44.3876,-68.2039,275.37,80,75,5.14,US,1618733600
225,port-cartier,50.0334,-66.8654,271.48,74,20,3.09,CA,1618733600
226,marmande,44.5,0.1667,283.71,65,16,0.89,FR,1618733600
227,radlje ob dravi,46.6142,15.2264,279.82,73,100,0.45,SI,1618733601
228,alice springs,-23.7,133.8833,296.48,21,2,5.14,AU,1618733533
229,chingirlau,51.095,54.0814,292.61,44,59,0.75,KZ,1618733602
230,zambezi,-13.5432,23.1047,295.35,53,100,5.08,ZM,1618733602
231,malindi,-3.2175,40.1191,300.15,89,75,7.2,KE,1618733603
232,dingle,10.9995,122.6711,302.29,61,100,6.52,PH,1618733603
233,urumqi,43.801,87.6005,295.15,26,40,3.0,CN,1618733603
234,olean,42.0776,-78.4297,277.15,100,75,1.54,US,1618733604
235,dunkirk,51.05,2.3667,282.59,74,100,0.89,FR,1618733604
236,gopalpur,19.2667,84.9167,304.42,63,5,8.92,IN,1618733605
237,svetlaya,46.5389,138.3297,276.92,88,100,8.71,RU,1618733530
238,priargunsk,50.3691,119.1012,292.27,19,57,3.69,RU,1618733606
239,itaituba,-4.2761,-55.9836,295.43,99,100,0.76,BR,1618733606
240,panama city,8.9936,-79.5197,298.15,94,75,1.54,PA,1618733486
241,acapulco,16.8634,-99.8901,296.99,70,0,2.18,MX,1618733607
242,lorengau,-2.0226,147.2712,300.26,81,31,3.31,PG,1618733350
243,bodden town,19.2833,-81.25,300.37,1,54,2.68,KY,1618733607
244,rumonge,-3.9736,29.4386,295.92,89,100,2.03,BI,1618733608
245,chagoda,59.164,35.3285,284.05,46,81,4.32,RU,1618733608
246,cockburn town,21.4612,-71.1419,298.86,88,0,7.51,TC,1618733609
247,san patricio,28.017,-97.5169,286.48,71,75,5.14,US,1618733609
248,hedaru,-4.5,37.9,296.48,77,98,4.72,TZ,1618733609
249,touros,-5.1989,-35.4608,297.15,94,75,4.63,BR,1618733610
250,sindou,10.6667,-5.1667,300.79,51,66,1.39,BF,1618733610
251,longyearbyen,78.2186,15.6401,275.15,75,75,12.35,SJ,1618733540
252,union,40.6334,-74.2663,282.59,61,75,2.06,US,1618733611
253,sawtell,-30.3833,153.1,291.15,72,26,4.12,AU,1618733611
254,salinas,36.6777,-121.6555,283.15,93,90,2.57,US,1618734010
255,kichmengskiy gorodok,59.9816,45.7854,278.11,50,73,5.04,RU,1618733612
256,qaqortoq,60.7167,-46.0333,265.15,49,0,3.09,GL,1618733612
257,vila velha,-20.3297,-40.2925,295.15,94,0,1.03,BR,1618733613
258,sabang,5.8933,95.3214,301.97,72,55,5.07,ID,1618733613
259,kaitangata,-46.2817,169.8464,283.71,70,92,3.4,NZ,1618733468
260,viet tri,21.3019,105.4308,297.15,83,75,2.57,VN,1618733477
261,saint-francois,46.4154,3.9054,280.93,70,0,3.6,FR,1618733614
262,matamoros,25.5333,-103.25,287.59,63,0,6.12,MX,1618733614
263,karamursel,40.6914,29.6157,293.71,93,75,5.14,TR,1618733614
264,cabo san lucas,22.8909,-109.9124,291.48,80,1,5.15,MX,1618733558
265,henties bay,-22.116,14.2845,303.08,32,89,8.81,NA,1618733615
266,umm lajj,25.0213,37.2685,302.48,51,0,3.74,SA,1618733616
267,la fria,8.2203,-72.2439,295.95,86,100,1.31,VE,1618733616
268,atocha,-20.9333,-66.2333,278.39,79,4,1.3,BO,1618733616
269,lagoa,39.05,-27.9833,288.93,86,48,7.56,PT,1618733617
270,yumen,40.2833,97.2,291.85,7,100,0.88,CN,1618733617
271,barcanesti,44.8833,26.05,282.15,76,100,5.14,RO,1618733618
272,flin flon,54.7682,-101.865,268.44,84,68,4.55,CA,1618733618
273,mildura,-34.2,142.15,292.15,37,90,3.09,AU,1618733618
274,lucapa,-8.4192,20.7447,296.58,71,65,3.33,AO,1618733619
275,namatanai,-3.6667,152.4333,300.52,80,100,5.3,PG,1618733619
276,sterling,39.0062,-77.4286,281.48,76,1,1.54,US,1618733620
277,tilichiki,60.4667,166.1,269.16,91,92,1.81,RU,1618733620
278,saint-paul,-21.0096,55.2707,301.15,61,90,3.6,RE,1618733620
279,birjand,32.8663,59.2211,297.15,12,0,2.06,IR,1618733621
280,taoudenni,22.6783,-3.9836,299.54,19,0,9.13,ML,1618733621
281,irbit,57.6705,63.071,275.39,40,100,7.0,RU,1618733622
282,salalah,17.0151,54.0924,304.15,62,20,5.66,OM,1618733622
283,troitskoye,52.9821,84.6757,279.66,69,100,3.69,RU,1618733622
284,lavrentiya,65.5833,-171.0,264.25,99,23,0.11,RU,1618733623
285,solnechnyy,50.7214,136.6319,281.67,70,34,2.23,RU,1618733624
286,kandrian,-6.2167,149.55,299.8,80,100,4.86,PG,1618733625
287,port hardy,50.6996,-127.4199,282.15,93,1,1.54,CA,1618733625
288,gilgit,35.9221,74.3087,287.39,73,41,0.98,PK,1618733625
289,sao joao da barra,-21.6403,-41.0511,296.44,85,99,5.36,BR,1618733626
290,omboue,-1.5746,9.2618,298.3,87,100,2.06,GA,1618733626
291,nagato,34.3833,131.2,288.15,41,75,7.72,JP,1618733626
292,martapura,-3.4167,114.85,305.15,51,20,3.09,ID,1618733627
293,ndele,8.4109,20.6473,307.27,33,91,2.85,CF,1618733627
294,geraldton,-28.7667,114.6,300.15,39,0,10.29,AU,1618733628
295,bairiki,1.3292,172.9752,301.15,78,40,2.06,KI,1618733628
296,haines junction,60.7522,-137.5108,273.15,74,36,0.51,CA,1618733628
297,narsaq,60.9167,-46.05,265.15,49,0,3.09,GL,1618733629
298,praia,14.9215,-23.5087,294.15,78,20,7.72,CV,1618733629
299,mbalmayo,3.5167,11.5,294.15,100,75,2.06,CM,1618733630
300,japura,-0.3167,102.35,306.99,45,85,1.43,ID,1618733630
301,briceni,48.3572,27.7036,282.04,72,68,1.88,MD,1618733631
302,talaya,61.3833,152.75,273.13,83,45,4.02,RU,1618733631
303,grindavik,63.8424,-22.4338,276.15,81,75,11.83,IS,1618733632
304,guiratinga,-16.3494,-53.7583,292.59,91,9,0.74,BR,1618733632
305,popondetta,-8.7537,148.2534,297.61,94,100,1.63,PG,1618733632
306,quatre cocos,-20.2078,57.7625,302.59,83,75,6.17,MU,1618733633
307,hervey bay,-25.2986,152.8535,294.82,75,64,2.24,AU,1618733633
308,zagare,56.3592,23.25,286.15,44,0,4.12,LT,1618733634
309,pandamatenga,-18.5278,25.627,293.44,48,0,4.65,BW,1618733634
310,tevaitoa,-16.7833,-151.5,301.06,74,16,4.06,PF,1618733634
311,sorland,67.667,12.6934,278.19,71,17,3.83,NO,1618733636
312,kruisfontein,-34.0033,24.7314,300.93,30,2,0.89,ZA,1618733636
313,beringovskiy,63.05,179.3167,273.02,98,100,3.89,RU,1618733637
314,ewa beach,21.3156,-158.0072,296.15,73,1,2.57,US,1618733637
315,cabedelo,-6.9811,-34.8339,296.15,100,75,2.06,BR,1618733637
316,macia,-25.0269,33.0989,297.62,42,0,0.85,MZ,1618733638
317,port lincoln,-34.7333,135.8667,291.02,55,83,4.19,AU,1618733638
318,ziyang,29.2497,117.8547,293.03,59,100,0.87,CN,1618733639
319,ulundi,-28.3352,31.4162,296.2,37,1,1.7,ZA,1618733639
320,leiyang,26.4024,112.8591,288.53,93,100,2.45,CN,1618733406
321,broken hill,-31.95,141.4333,292.15,34,2,3.09,AU,1618733640
322,rawson,-43.3002,-65.1023,288.21,90,53,7.56,AR,1618733641
323,namibe,-15.1961,12.1522,302.94,56,7,2.04,AO,1618733641
324,kobelyaky,49.1489,34.1965,282.9,61,100,2.69,UA,1618733642
325,north bend,43.4065,-124.2243,281.48,100,90,0.99,US,1618733642
326,luderitz,-26.6481,15.1594,303.08,31,0,3.78,NA,1618733643
327,avera,33.194,-82.5271,288.15,94,1,2.57,US,1618733643
328,tiksi,71.6872,128.8694,259.37,88,100,4.07,RU,1618733644
329,marawi,7.9986,124.2928,302.04,68,100,5.81,PH,1618733644
330,talcahuano,-36.7167,-73.1167,286.15,100,90,2.06,CL,1618733415
331,votkinsk,57.0486,53.9872,278.93,57,97,6.46,RU,1618733645
332,yar-sale,66.8333,70.8333,261.64,88,100,7.35,RU,1618733645
333,shar,49.5886,81.0453,289.74,30,16,3.32,KZ,1618733645
334,dharchula,29.85,80.5333,299.06,20,26,3.88,IN,1618733646
335,hokitika,-42.7167,170.9667,285.83,83,93,0.74,NZ,1618733646
336,san jose,37.3394,-121.895,285.37,82,1,2.06,US,1618733656
337,bagdarin,54.4333,113.6,271.86,31,57,7.02,RU,1618733648
338,port-gentil,-0.7193,8.7815,300.15,83,20,2.06,GA,1618733648
339,mysliborz,52.9238,14.8679,284.26,77,100,2.24,PL,1618733648
340,cloquet,46.7216,-92.4594,272.59,69,1,1.54,US,1618733649
341,milkovo,54.7167,158.6167,275.05,92,100,2.05,RU,1618733649
342,livingston,55.9029,-3.5226,281.15,61,0,1.03,GB,1618733650
343,bahraich,27.5833,81.6,311.64,9,0,6.7,IN,1618733650
344,kafue,-15.7691,28.1814,294.18,53,86,4.81,ZM,1618733651
345,fredericksburg,38.3032,-77.4605,280.37,93,1,1.54,US,1618733384
346,coquimbo,-29.9533,-71.3436,286.15,94,90,1.03,CL,1618733651
347,velikiy ustyug,60.7644,46.3106,277.51,39,4,4.59,RU,1618733652
348,imbituba,-28.24,-48.6703,294.15,78,75,3.09,BR,1618733652
349,santa marinella,42.0345,11.8536,284.26,42,40,1.34,IT,1618733652
350,tagusao,9.1924,117.8141,301.55,72,100,3.02,PH,1618733653
351,itoman,26.1247,127.6694,294.15,52,75,10.29,JP,1618733653
352,tura,25.5198,90.2201,307.22,28,2,3.31,IN,1618733653
353,laguna,38.421,-121.4238,289.82,36,1,2.57,US,1618733654
354,suntar,62.1444,117.6319,266.97,68,100,4.82,RU,1618733654
355,renukut,24.2,83.0333,311.18,12,23,6.28,IN,1618733655
356,aldan,58.6031,125.3894,266.25,92,100,4.03,RU,1618733532
357,ostersund,63.1792,14.6357,279.15,52,4,3.6,SE,1618733655
358,madang,-5.2246,145.7966,297.44,90,100,3.89,PG,1618733655
359,manoel urbano,-8.8389,-69.2597,294.0,95,92,0.68,BR,1618733656
360,bell ville,-32.6259,-62.6887,288.71,95,0,0.89,AR,1618733656
361,waddan,29.1614,16.139,298.82,32,100,1.23,LY,1618733657
362,faya,18.3851,42.4509,296.15,20,0,4.12,SA,1618733657
363,cuyo,10.8525,121.0086,301.21,75,100,5.09,PH,1618733658
364,vanimo,-2.6741,141.3028,300.12,81,77,1.23,PG,1618733658
365,gushikawa,26.3544,127.8686,294.15,49,1,6.69,JP,1618733658
366,dalvik,65.9702,-18.5286,277.15,41,20,7.2,IS,1618733659
367,mbini,1.574,9.6134,298.21,89,100,0.85,GQ,1618733659
368,hjallerup,57.1647,10.1457,284.26,46,89,4.63,DK,1618733587
369,novoagansk,61.9449,76.6625,261.45,67,25,6.97,RU,1618733660
370,komsomolskiy,40.4272,71.7189,295.15,21,100,7.2,UZ,1618733660
371,kirakira,-10.4544,161.9205,300.08,84,100,3.01,SB,1618733661
372,coihaique,-45.5752,-72.0662,282.0,95,100,1.32,CL,1618733661
373,boguchany,58.3814,97.4531,274.26,50,100,5.48,RU,1618733662
374,omsukchan,62.5333,155.8,267.73,91,95,4.13,RU,1618733662
375,nova olinda do norte,-3.8881,-59.0942,295.52,99,94,1.05,BR,1618733662
376,tateyama,34.9833,139.8667,290.37,44,20,9.26,JP,1618733663
377,hami,42.8,93.45,297.7,10,72,3.09,CN,1618733663
378,vyskov,49.2775,16.999,280.93,76,100,2.7,CZ,1618733663
379,ust-tsilma,65.441,52.1498,271.13,50,5,2.79,RU,1618733664
380,lata,40.1629,-8.3327,285.37,68,100,0.89,PT,1618733664
381,fenoarivo,-18.933,47.4354,292.15,72,75,5.14,MG,1618733665
382,kuala terengganu,5.3302,103.1408,306.15,62,20,2.06,MY,1618733665
383,tacuarembo,-31.7333,-55.9833,287.4,96,100,1.83,UY,1618733538
384,calama,-22.4667,-68.9333,281.15,34,0,9.26,CL,1618733666
385,kashi,39.4547,75.9797,295.15,12,0,4.0,CN,1618733668
386,kushima,31.4583,131.2333,292.15,37,20,6.69,JP,1618733668
387,dalnerechensk,45.9339,133.7225,287.39,33,33,6.91,RU,1618733668
388,kayerkan,69.3497,87.7602,252.71,87,25,2.88,RU,1618733669
389,pa sang,18.5262,98.9394,306.48,55,75,1.54,TH,1618733669
390,lakes entrance,-37.8811,147.981,289.26,70,61,2.52,AU,1618733670
391,santa maria,-29.6842,-53.8069,289.6,97,92,2.38,BR,1618733670
392,kupang,-10.1667,123.5833,301.58,70,97,5.04,ID,1618733670
393,cherskiy,68.75,161.3,272.4,74,100,8.92,RU,1618733671
394,nishihara,26.1842,127.7558,294.15,52,20,6.69,JP,1618733671
395,lewisporte,49.2499,-55.0482,275.15,93,90,8.75,CA,1618733671
396,telimele,10.9167,-13.3333,297.42,75,100,0.23,GN,1618733672
397,constitucion,-35.3333,-72.4167,284.75,87,27,0.21,CL,1618733672
398,berlevag,70.8578,29.0864,276.15,83,91,8.54,NO,1618733673
399,panguna,-6.3164,155.4848,294.53,95,53,1.02,PG,1618733673
400,ligayan,4.6533,119.4706,301.82,75,99,6.38,PH,1618733673
401,lasa,46.6166,10.7002,285.15,74,20,3.09,IT,1618733674
402,chitrakonda,18.1167,82.0833,310.48,20,34,2.9,IN,1618733674
403,sabha,27.0377,14.4283,302.47,19,100,5.94,LY,1618733674
404,griffith,41.5284,-87.4237,274.82,86,1,0.81,US,1618733675
405,berezovyy,51.6667,135.7,281.89,77,39,1.91,RU,1618733675
406,chany,55.3121,76.7647,280.48,69,100,7.37,RU,1618733676
407,grand gaube,-20.0064,57.6608,302.59,72,91,4.02,MU,1618733676
408,gambela,8.25,34.5833,312.25,21,39,1.53,ET,1618733676
409,vallenar,-28.5708,-70.7581,289.08,79,0,1.23,CL,1618733677
410,tottori,35.5,134.2333,282.15,87,75,2.57,JP,1618733464
411,ngunguru,-35.6167,174.5,287.59,86,100,3.58,NZ,1618733677
412,yerbogachen,61.2767,108.0108,268.57,54,100,4.86,RU,1618733530
413,havoysund,70.9963,24.6622,277.15,70,0,5.14,NO,1618733678
414,souillac,-20.5167,57.5167,300.15,83,75,6.17,MU,1618733678
415,ustynivka,47.9551,32.5367,287.15,41,40,3.0,UA,1618733678
416,saquarema,-22.92,-42.5103,294.2,83,100,2.09,BR,1618733679
417,worland,44.0169,-107.9554,277.04,70,75,2.08,US,1618733679
418,cartagena del chaira,1.3349,-74.8429,294.68,98,100,0.81,CO,1618733680
419,damghan,36.1683,54.348,294.55,23,88,1.68,IR,1618733680
420,rocha,-34.4833,-54.3333,288.02,96,58,1.28,UY,1618733680
421,caravelas,-17.7125,-39.2481,294.15,94,28,1.56,BR,1618733681
422,oksfjord,70.2396,22.3479,277.15,65,0,1.54,NO,1618733681
423,muli,2.9167,73.5667,302.06,62,66,3.89,MV,1618733682
424,necochea,-38.5473,-58.7368,289.82,93,100,2.24,AR,1618733682
425,katsuura,35.1333,140.3,293.15,39,0,4.02,JP,1618733682
426,klaksvik,62.2266,-6.589,281.15,100,100,8.75,FO,1618733683
427,manokwari,-0.8667,134.0833,300.35,76,55,1.28,ID,1618733683
428,chipata,-13.6333,32.65,292.46,69,72,3.6,ZM,1618733684
429,poum,-20.2333,164.0167,299.47,70,73,3.76,NC,1618733684
430,karratha,-20.7377,116.8463,303.5,41,0,6.26,AU,1618733684
431,yelets,52.6237,38.5017,281.99,67,93,3.4,RU,1618733685
432,portree,57.4129,-6.1942,279.82,89,100,9.39,GB,1618733685
433,bani walid,31.7566,13.9942,289.33,62,100,5.28,LY,1618733686
434,upanema,-5.6419,-37.2578,296.55,88,87,1.37,BR,1618733687
435,toba,34.4833,136.85,283.71,81,9,2.68,JP,1618733687
436,itapetininga,-23.5917,-48.0531,290.38,92,100,2.59,BR,1618733688
437,batagay,67.6333,134.6333,268.52,89,100,2.86,RU,1618733688
438,buala,-8.145,159.5921,300.66,79,94,2.25,SB,1618733689
439,ketchikan,55.3422,-131.6461,277.15,87,1,1.54,US,1618733689
440,araouane,18.9048,-3.5265,301.03,14,6,6.9,ML,1618733689
441,yakeshi,49.2833,120.7333,280.35,74,15,2.35,CN,1618733690
442,san rafael del sur,11.8485,-86.4384,301.15,78,20,2.06,NI,1618733690
443,pokosnoye,55.5258,101.0536,273.79,46,100,4.49,RU,1618733690
444,chengam,12.3,78.8,309.77,27,10,3.1,IN,1618733691
445,port moresby,-9.4431,147.1797,299.08,86,88,1.24,PG,1618733691
446,asfi,32.2994,-9.2372,289.95,79,44,6.02,MA,1618733692
447,puerto princesa,9.7392,118.7353,304.15,62,90,4.12,PH,1618733692
448,batagay-alyta,67.8006,130.4114,267.48,91,100,1.79,RU,1618733534
449,tautira,-17.7333,-149.15,299.82,78,20,1.03,PF,1618733692
450,dudinka,69.4058,86.1778,253.01,86,18,4.46,RU,1618733693
451,vardo,70.3705,31.1107,275.19,88,64,7.09,NO,1618733693
452,sebezh,56.2955,28.4654,285.85,42,65,4.75,RU,1618733694
453,sampit,-2.5333,112.95,298.53,88,100,0.72,ID,1618733694
454,victoria point,-27.5833,153.3,292.59,83,82,5.94,AU,1618733694
455,port alberni,49.2413,-124.8028,284.82,69,13,0.66,CA,1618733695
456,raudeberg,61.9875,5.1352,285.15,40,2,4.63,NO,1618733696
457,broome,42.2506,-75.833,279.26,93,90,2.57,US,1618733697
458,victor harbor,-35.5667,138.6167,289.82,78,81,3.2,AU,1618733697
459,sembe,1.6481,14.5806,298.11,81,100,1.48,CG,1618733698
460,reconquista,-29.15,-59.65,291.59,92,0,2.15,AR,1618733699
461,novobelokatay,55.7062,58.9549,282.75,52,32,5.94,RU,1618733699
462,mount gambier,-37.8333,140.7667,289.15,67,90,6.17,AU,1618733700
463,tarakan,3.3,117.6333,305.15,62,40,2.06,ID,1618733700
464,xinzhi,36.4989,111.7047,296.34,21,1,4.13,CN,1618733701
465,sinnamary,5.3833,-52.95,298.67,79,100,5.82,GF,1618733701
466,nelson bay,-32.7167,152.15,289.26,88,4,3.21,AU,1618733701
467,dormidontovka,47.7702,134.9076,286.0,40,7,5.54,RU,1618733702
468,saint-denis,48.9167,2.3333,280.15,76,0,3.09,FR,1618733702
469,jalu,29.0331,21.5482,305.71,12,100,1.62,LY,1618733710
470,ziro,27.6333,93.8333,303.15,58,90,1.54,IN,1618733711
471,skibbereen,51.55,-9.2667,281.15,87,90,3.09,IE,1618733712
472,isabela,6.7085,121.9711,303.15,74,75,5.66,PH,1618733712
473,mariakani,-3.8633,39.4736,298.15,94,90,7.2,KE,1618733713
474,san cristobal,7.7669,-72.225,292.24,87,94,1.01,VE,1618733713
475,isangel,-19.55,169.2667,298.76,84,72,4.51,VU,1618733713
476,nizwa,22.9333,57.5333,308.61,9,80,5.65,OM,1618733714
477,sangar,63.9242,127.4739,266.77,80,100,2.52,RU,1618733714
478,nuevo progreso,23.1667,-97.95,289.82,68,99,2.24,MX,1618733715
479,adre,13.4667,22.2,305.71,7,25,8.57,TD,1618733715
480,hirara,24.8,125.2833,295.15,52,20,9.26,JP,1618733715
481,masuda,34.6667,131.85,284.15,82,75,4.63,JP,1618733716
482,valday,57.9747,33.2525,283.79,46,3,5.03,RU,1618733716
483,babina,25.25,78.4667,311.7,10,3,5.58,IN,1618733716
484,krugersdorp,-26.0858,27.7752,290.37,63,0,1.54,ZA,1618733717
485,salinopolis,-0.6136,-47.3561,297.92,88,100,3.94,BR,1618733717
486,deputatskiy,69.3,139.9,264.37,87,100,7.67,RU,1618733717
487,robertsport,6.7533,-11.3686,299.14,78,77,2.67,LR,1618733718
488,vestmanna,62.1564,-7.1664,281.15,100,100,8.75,FO,1618733718
489,acajutla,13.5928,-89.8275,295.93,87,100,0.89,SV,1618733719
490,lulea,65.5842,22.1547,277.15,75,0,1.54,SE,1618733719
491,along,28.1667,94.7667,294.86,75,98,1.38,IN,1618733719
492,urdoma,61.7533,48.5442,275.75,46,6,4.13,RU,1618733720
493,ossora,59.2353,163.0719,270.77,89,100,0.36,RU,1618733720
494,kijang,35.2442,129.2139,292.15,22,0,4.63,KR,1618733721
495,dolores,-36.3132,-57.6792,288.83,95,26,2.23,AR,1618733721
496,labuhan,-6.8844,112.2051,301.92,68,100,2.73,ID,1618733721
497,neiafu,-18.65,-173.9833,299.54,70,18,5.74,TO,1618733722
498,black river,18.0264,-77.8487,298.15,73,20,1.03,JM,1618733722
499,lukhovitsy,54.9728,39.0361,281.48,53,100,4.3,RU,1618733722
500,vila franca do campo,37.7167,-25.4333,289.15,94,75,3.6,PT,1618733723
501,yubari,43.0378,141.9578,282.15,93,75,5.14,JP,1618733723
502,eggenfelden,48.4054,12.7626,279.82,92,100,0.7,DE,1618733724
503,ilulissat,69.2167,-51.1,257.15,60,100,9.26,GL,1618733724
504,victoria,22.2855,114.1577,297.04,70,28,0.89,HK,1618733712
505,banda aceh,5.5577,95.3222,302.87,69,20,4.39,ID,1618733724
506,palu,-0.8917,119.8707,301.04,77,100,1.19,ID,1618733619
507,nizhniy kuranakh,58.8353,125.4869,268.05,88,100,3.5,RU,1618733532
508,chancay,-11.5714,-77.2672,291.48,88,0,2.06,PE,1618733725
509,edd,13.9297,41.6925,308.06,26,8,9.22,ER,1618733726
510,birin,26.8865,88.0718,304.15,48,75,3.6,NP,1618733727
511,trairi,-3.2778,-39.2689,296.65,94,97,2.24,BR,1618733540
512,mulege,26.8833,-111.9833,292.22,42,0,0.89,MX,1618733844
513,payo,-3.7508,103.6372,304.68,55,99,1.51,ID,1618733728
514,tynda,55.1667,124.7167,279.51,82,100,1.86,RU,1618733728
515,liberty,31.8335,-81.5004,291.15,88,20,3.09,US,1618733729
516,benjamin aceval,-24.9667,-57.5667,293.15,94,0,1.03,PY,1618733729
517,maicao,11.3832,-72.2432,298.73,79,76,5.11,CO,1618733730
518,padang,-0.9492,100.3543,302.53,69,50,2.44,ID,1618733730
519,mitsamiouli,-11.3847,43.2844,302.15,70,40,6.17,KM,1618733730
520,vao,-22.6667,167.4833,297.37,77,69,7.45,NC,1618733731
521,gorom-gorom,14.4439,-0.2361,306.37,28,72,6.99,BF,1618733731
522,moate,53.55,-7.7167,281.48,88,100,1.34,IE,1618733732
523,jijiga,9.35,42.8,295.78,54,92,4.64,ET,1618733660
524,nago,26.5881,127.9761,294.15,49,1,6.69,JP,1618733732
525,batsfjord,70.6345,29.7185,276.07,84,93,6.48,NO,1618733733
526,port keats,-14.25,129.55,304.47,36,62,3.17,AU,1618733733
527,sandakan,5.8402,118.1179,305.15,62,20,2.06,MY,1618733733
528,navalmoral de la mata,39.8916,-5.5406,282.59,54,99,1.34,ES,1618733734
529,tarabha,20.7333,83.65,314.65,11,6,3.38,IN,1618733734
530,nanning,22.8167,108.3167,293.15,94,90,2.0,CN,1618733735
531,bereda,43.2686,-7.5406,283.71,100,56,0.89,ES,1618733735
532,luneville,48.6,6.5,283.15,53,90,3.09,FR,1618733736
533,hovd,48.0056,91.6419,288.08,10,1,8.04,MN,1618733736
534,mosetse,-20.75,26.65,293.42,38,0,6.63,BW,1618733736
535,hofn,64.2539,-15.2082,277.82,57,96,6.2,IS,1618733737
536,piacabucu,-10.4056,-36.4344,297.22,85,37,2.06,BR,1618733737
537,pangnirtung,66.1451,-65.7125,255.26,82,14,3.53,CA,1618733737
538,clyde river,70.4692,-68.5914,258.15,85,90,4.63,CA,1618733738
539,dwarka,22.2394,68.9678,303.25,56,56,5.82,IN,1618733738
540,port macquarie,-31.4333,152.9167,288.71,88,51,3.96,AU,1618733669
541,coolum beach,-26.5333,153.1,293.15,80,4,3.76,AU,1618733739
542,albstadt,48.2164,9.026,276.48,100,100,1.37,DE,1618733739
543,nantucket,41.2835,-70.0995,279.15,87,90,2.06,US,1618733694
544,half moon bay,37.4636,-122.4286,284.82,82,1,3.97,US,1618733740
545,veraval,20.9,70.3667,305.54,48,0,6.57,IN,1618733740
546,cardston,49.2,-113.3019,279.15,45,66,3.09,CA,1618733741
